{
  "type": "FeatureCollection", 
  "features": [
    {
      "geometry": {
        "type": "Point", 
        "coordinates": [
          11.08020544052124, 
          47.59633885528883
        ]
      }, 
      "type": "Feature", 
      "properties": {
        "description": "2:02 from Munich from Munich", 
        "_storage_options": {
          "iconClass": "Circle", 
          "color": "SaddleBrown"
        }, 
        "name": "Aufackerstra\u00dfe, Oberammergau"
      }
    }, 
    {
      "geometry": {
        "type": "Point", 
        "coordinates": [
          11.743483543395996, 
          47.55234613131679
        ]
      }, 
      "type": "Feature", 
      "properties": {
        "description": "3:03 from Munich from Munich", 
        "_storage_options": {
          "iconClass": "Circle", 
          "color": "DarkViolet"
        }, 
        "name": "Achenkirch Abzw Gufferth\u00fctte, \u00d6sterreich"
      }
    }, 
    {
      "geometry": {
        "type": "Point", 
        "coordinates": [
          13.034913539886475, 
          47.66608099332474
        ]
      }, 
      "type": "Feature", 
      "properties": {
        "description": "2:25 from Munich", 
        "_storage_options": {
          "iconClass": "Circle", 
          "color": "DeepPink"
        }, 
        "name": "Almbachklamm, Marktschellenberg"
      }
    }, 
    {
      "geometry": {
        "type": "Point", 
        "coordinates": [
          10.267496109008789, 
          47.3303009581953
        ]
      }, 
      "type": "Feature", 
      "properties": {
        "description": "3:02 from Munich", 
        "_storage_options": {
          "iconClass": "Circle", 
          "color": "DarkViolet"
        }, 
        "name": "Alpe Eschbach, Oberstdorf"
      }
    }, 
    {
      "geometry": {
        "type": "Point", 
        "coordinates": [
          12.325587272644043, 
          47.77890528336972
        ]
      }, 
      "type": "Feature", 
      "properties": {
        "description": "1:13 from Munich", 
        "_storage_options": {
          "iconClass": "Circle", 
          "color": "Green"
        }, 
        "name": "Aschau(Chiemgau)"
      }
    }, 
    {
      "geometry": {
        "type": "Point", 
        "coordinates": [
          12.8454852104187, 
          47.60073754188286
        ]
      }, 
      "type": "Feature", 
      "properties": {
        "description": "3:22 from Munich", 
        "_storage_options": {
          "iconClass": "Circle", 
          "color": "DimGrey"
        }, 
        "name": "Auzinger, Ramsau b. Berchtesgaden"
      }
    }, 
    {
      "geometry": {
        "type": "Point", 
        "coordinates": [
          12.011661529541014, 
          47.67521302081865
        ]
      }, 
      "type": "Feature", 
      "properties": {
        "description": "1:19 from Munich", 
        "_storage_options": {
          "iconClass": "Circle", 
          "color": "GoldenRod"
        }, 
        "name": "Bayrischzell"
      }
    }, 
    {
      "geometry": {
        "type": "Point", 
        "coordinates": [
          11.403636932373045, 
          47.70941501564913
        ]
      }, 
      "type": "Feature", 
      "properties": {
        "description": "0:58 from Munich", 
        "_storage_options": {
          "iconClass": "Circle", 
          "color": "Green"
        }, 
        "name": "Benediktbeuern"
      }
    }, 
    {
      "geometry": {
        "type": "Point", 
        "coordinates": [
          10.793380737304688, 
          47.42088661600601
        ]
      }, 
      "type": "Feature", 
      "properties": {
        "description": "2:11 from Munich", 
        "_storage_options": {
          "iconClass": "Circle", 
          "color": "SaddleBrown"
        }, 
        "name": "Bichlbach-Berwang"
      }
    }, 
    {
      "geometry": {
        "type": "Point", 
        "coordinates": [
          13.219985961914062, 
          47.41775054307326
        ]
      }, 
      "type": "Feature", 
      "properties": {
        "description": "2:31 from Munich", 
        "_storage_options": {
          "iconClass": "Circle", 
          "color": "DeepPink"
        }, 
        "name": "Bischofshofen"
      }
    }, 
    {
      "geometry": {
        "type": "Point", 
        "coordinates": [
          12.960262298583984, 
          47.65157049946028
        ]
      }, 
      "type": "Feature", 
      "properties": {
        "description": "2:27 from Munich", 
        "_storage_options": {
          "iconClass": "Circle", 
          "color": "DeepPink"
        }, 
        "name": "Bischofswiesen"
      }
    }, 
    {
      "geometry": {
        "type": "Point", 
        "coordinates": [
          12.106847763061523, 
          47.74105497889003
        ]
      }, 
      "type": "Feature", 
      "properties": {
        "description": "0:56 from Munich", 
        "_storage_options": {
          "iconClass": "Circle", 
          "color": "Green"
        }, 
        "name": "Brannenburg"
      }
    }, 
    {
      "geometry": {
        "type": "Point", 
        "coordinates": [
          10.370793342590332, 
          47.50475072787994
        ]
      }, 
      "type": "Feature", 
      "properties": {
        "description": "2:27 from Munich", 
        "_storage_options": {
          "iconClass": "Circle", 
          "color": "DeepPink"
        }, 
        "name": "Busbahnhof, Bad Hindelang"
      }
    }, 
    {
      "geometry": {
        "type": "Point", 
        "coordinates": [
          10.302793979644774, 
          47.36716647453842
        ]
      }, 
      "type": "Feature", 
      "properties": {
        "description": "2:43 from Munich", 
        "_storage_options": {
          "iconClass": "Circle", 
          "color": "DeepPink"
        }, 
        "name": "Christlessee, Oberstdorf"
      }
    }, 
    {
      "geometry": {
        "type": "Point", 
        "coordinates": [
          10.938413143157959, 
          47.38749817886598
        ]
      }, 
      "type": "Feature", 
      "properties": {
        "description": "", 
        "_storage_options": {
          "iconClass": "Circle", 
          "color": "Black"
        }, 
        "name": "Ehrwald Almbahn Talstation, \u00d6sterreich"
      }
    }, 
    {
      "geometry": {
        "type": "Point", 
        "coordinates": [
          10.913629531860352, 
          47.40927059579516
        ]
      }, 
      "type": "Feature", 
      "properties": {
        "description": "1:57 from Munich", 
        "_storage_options": {
          "iconClass": "Circle", 
          "color": "SaddleBrown"
        }, 
        "name": "Ehrwald Zugspitzbahn"
      }
    }, 
    {
      "geometry": {
        "type": "Point", 
        "coordinates": [
          10.993709564208984, 
          47.45635768683895
        ]
      }, 
      "type": "Feature", 
      "properties": {
        "description": "2:13 from Munich", 
        "_storage_options": {
          "iconClass": "Circle", 
          "color": "SaddleBrown"
        }, 
        "name": "Eibsee Zugspitzbahn, Grainau"
      }
    }, 
    {
      "geometry": {
        "type": "Point", 
        "coordinates": [
          11.502406597137451, 
          47.46307475773903
        ]
      }, 
      "type": "Feature", 
      "properties": {
        "description": "1:54 from Munich", 
        "_storage_options": {
          "iconClass": "Circle", 
          "color": "SaddleBrown"
        }, 
        "name": "Einstieg Johannestal, \u00d6sterreich"
      }
    }, 
    {
      "geometry": {
        "type": "Point", 
        "coordinates": [
          11.547918319702148, 
          47.44800004651681
        ]
      }, 
      "type": "Feature", 
      "properties": {
        "description": "1:59 from Munich", 
        "_storage_options": {
          "iconClass": "Circle", 
          "color": "SaddleBrown"
        }, 
        "name": "Einstieg Laliderertal, \u00d6sterreich"
      }
    }, 
    {
      "geometry": {
        "type": "Point", 
        "coordinates": [
          10.430510044097899, 
          47.287613425713516
        ]
      }, 
      "type": "Feature", 
      "properties": {
        "description": "3:36 from Munich", 
        "_storage_options": {
          "iconClass": "Circle", 
          "color": "DimGrey"
        }, 
        "name": "Elbigenalp Hotel Alpenrose, \u00d6sterreich"
      }
    }, 
    {
      "geometry": {
        "type": "Point", 
        "coordinates": [
          11.567042469978333, 
          47.402484928619224
        ]
      }, 
      "type": "Feature", 
      "properties": {
        "description": "2:10 from Munich", 
        "_storage_options": {
          "iconClass": "Circle", 
          "color": "SaddleBrown"
        }, 
        "name": "Eng/Tirol Gasthaus, \u00d6sterreich"
      }
    }, 
    {
      "geometry": {
        "type": "Point", 
        "coordinates": [
          12.128219604492188, 
          47.72402490516458
        ]
      }, 
      "type": "Feature", 
      "properties": {
        "description": "0:59 from Munich", 
        "_storage_options": {
          "iconClass": "Circle", 
          "color": "Green"
        }, 
        "name": "Flintsbach"
      }
    }, 
    {
      "geometry": {
        "type": "Point", 
        "coordinates": [
          11.96632146835327, 
          47.69381891515127
        ]
      }, 
      "type": "Feature", 
      "properties": {
        "description": "1:12 from Munich", 
        "_storage_options": {
          "iconClass": "Circle", 
          "color": "Green"
        }, 
        "name": "Geitau"
      }
    }, 
    {
      "geometry": {
        "type": "Point", 
        "coordinates": [
          11.278324127197266, 
          47.50582336774143
        ]
      }, 
      "type": "Feature", 
      "properties": {
        "description": "1:57 from Munich", 
        "_storage_options": {
          "iconClass": "Circle", 
          "color": "SaddleBrown"
        }, 
        "name": "Gh. Post/Cafe Kranzbach, Kr\u00fcn"
      }
    }, 
    {
      "geometry": {
        "type": "Point", 
        "coordinates": [
          10.412099361419678, 
          47.42219325793046
        ]
      }, 
      "type": "Feature", 
      "properties": {
        "description": "", 
        "_storage_options": {
          "iconClass": "Circle", 
          "color": "Black"
        }, 
        "name": "Giebelhaus, Bad Hindelang"
      }
    }, 
    {
      "geometry": {
        "type": "Point", 
        "coordinates": [
          11.23695373535156, 
          47.37466872173785
        ]
      }, 
      "type": "Feature", 
      "properties": {
        "description": "2:34 from Munich", 
        "_storage_options": {
          "iconClass": "Circle", 
          "color": "DeepPink"
        }, 
        "name": "Gie\u00dfenbach in Tirol"
      }
    }, 
    {
      "geometry": {
        "type": "Point", 
        "coordinates": [
          12.235400676727293, 
          47.77584827823543
        ]
      }, 
      "type": "Feature", 
      "properties": {
        "description": "1:15 from Munich", 
        "_storage_options": {
          "iconClass": "Circle", 
          "color": "Green"
        }, 
        "name": "Grainbach, Samerberg"
      }
    }, 
    {
      "geometry": {
        "type": "Point", 
        "coordinates": [
          10.555200576782227, 
          47.50633068977054
        ]
      }, 
      "type": "Feature", 
      "properties": {
        "description": "3:45 from Munich", 
        "_storage_options": {
          "iconClass": "Circle", 
          "color": "DimGrey"
        }, 
        "name": "Gr\u00e4n Obergr\u00e4n, \u00d6sterreich"
      }
    }, 
    {
      "geometry": {
        "type": "Point", 
        "coordinates": [
          10.946674346923828, 
          47.47800012097561
        ]
      }, 
      "type": "Feature", 
      "properties": {
        "description": "1:47 from Munich", 
        "_storage_options": {
          "iconClass": "Circle", 
          "color": "SaddleBrown"
        }, 
        "name": "Griesen(Oberbay)"
      }
    }, 
    {
      "geometry": {
        "type": "Point", 
        "coordinates": [
          13.042294979095457, 
          47.726291092111
        ]
      }, 
      "type": "Feature", 
      "properties": {
        "description": "2:07 from Munich", 
        "_storage_options": {
          "iconClass": "Circle", 
          "color": "SaddleBrown"
        }, 
        "name": "Gr\u00f6dig Untersbergbahn Talstation (Busterminal), \u00d6s"
      }
    }, 
    {
      "geometry": {
        "type": "Point", 
        "coordinates": [
          11.572449803352356, 
          47.44045381376169
        ]
      }, 
      "type": "Feature", 
      "properties": {
        "description": "2:02 from Munich", 
        "_storage_options": {
          "iconClass": "Circle", 
          "color": "SaddleBrown"
        }, 
        "name": "Haglh\u00fctte, \u00d6sterreich"
      }
    }, 
    {
      "geometry": {
        "type": "Point", 
        "coordinates": [
          10.820846557617186, 
          47.63034670127972
        ]
      }, 
      "type": "Feature", 
      "properties": {
        "description": "2:18 from Munich", 
        "_storage_options": {
          "iconClass": "Circle", 
          "color": "DeepPink"
        }, 
        "name": "Halblech Ortsmitte"
      }
    }, 
    {
      "geometry": {
        "type": "Point", 
        "coordinates": [
          11.04649543762207, 
          47.46606307067127
        ]
      }, 
      "type": "Feature", 
      "properties": {
        "description": "1:55 from Munich", 
        "_storage_options": {
          "iconClass": "Circle", 
          "color": "SaddleBrown"
        }, 
        "name": "Hammersbach Zugspitzbahn, Grainau"
      }
    }, 
    {
      "geometry": {
        "type": "Point", 
        "coordinates": [
          11.485412120819092, 
          47.46694792685248
        ]
      }, 
      "type": "Feature", 
      "properties": {
        "description": "1:52 from Munich", 
        "_storage_options": {
          "iconClass": "Circle", 
          "color": "SaddleBrown"
        }, 
        "name": "Hinterri\u00df Alpenhof, \u00d6sterreich"
      }
    }, 
    {
      "geometry": {
        "type": "Point", 
        "coordinates": [
          11.466851234436035, 
          47.47263386032597
        ]
      }, 
      "type": "Feature", 
      "properties": {
        "description": "1:50 from Munich", 
        "_storage_options": {
          "iconClass": "Circle", 
          "color": "SaddleBrown"
        }, 
        "name": "Hinterri\u00df Gh. Post, \u00d6sterreich"
      }
    }, 
    {
      "geometry": {
        "type": "Point", 
        "coordinates": [
          12.857844829559326, 
          47.605193728800735
        ]
      }, 
      "type": "Feature", 
      "properties": {
        "description": "3:21 from Munich", 
        "_storage_options": {
          "iconClass": "Circle", 
          "color": "DimGrey"
        }, 
        "name": "Hintersee Zauberwald, Ramsau b. Berchtesgaden"
      }
    }, 
    {
      "geometry": {
        "type": "Point", 
        "coordinates": [
          10.74061632156372, 
          47.5565602627253
        ]
      }, 
      "type": "Feature", 
      "properties": {
        "description": "2:20 from Munich", 
        "_storage_options": {
          "iconClass": "Circle", 
          "color": "DeepPink"
        }, 
        "name": "Hohenschwangau, Schwangau (Schl\u00f6sser)"
      }
    }, 
    {
      "geometry": {
        "type": "Point", 
        "coordinates": [
          12.862179279327393, 
          47.60584476328979
        ]
      }, 
      "type": "Feature", 
      "properties": {
        "description": "3:20 from Munich", 
        "_storage_options": {
          "iconClass": "Circle", 
          "color": "DimGrey"
        }, 
        "name": "Holzlagerplatz Blaueis, Ramsau b. Berchtesgaden"
      }
    }, 
    {
      "geometry": {
        "type": "Point", 
        "coordinates": [
          11.433763504028319, 
          47.605902632630006
        ]
      }, 
      "type": "Feature", 
      "properties": {
        "description": "1:36 from Munich", 
        "_storage_options": {
          "iconClass": "Circle", 
          "color": "GoldenRod"
        }, 
        "name": "Jachenau Post"
      }
    }, 
    {
      "geometry": {
        "type": "Point", 
        "coordinates": [
          12.994079589843748, 
          47.59144777616703
        ]
      }, 
      "type": "Feature", 
      "properties": {
        "description": "3:00 from Munich", 
        "_storage_options": {
          "iconClass": "Circle", 
          "color": "DarkViolet"
        }, 
        "name": "Jennerbahn, Sch\u00f6nau a. K\u00f6nigssee"
      }
    }, 
    {
      "geometry": {
        "type": "Point", 
        "coordinates": [
          11.89119815826416, 
          47.62013654528296
        ]
      }, 
      "type": "Feature", 
      "properties": {
        "description": "1:47 from Munich", 
        "_storage_options": {
          "iconClass": "Circle", 
          "color": "SaddleBrown"
        }, 
        "name": "Johannesbr\u00fccke, Schliersee"
      }
    }, 
    {
      "geometry": {
        "type": "Point", 
        "coordinates": [
          11.116361618041992, 
          47.48299605208241
        ]
      }, 
      "type": "Feature", 
      "properties": {
        "description": "1:43 from Munich", 
        "_storage_options": {
          "iconClass": "Circle", 
          "color": "GoldenRod"
        }, 
        "name": "Kainzenbad"
      }
    }, 
    {
      "geometry": {
        "type": "Point", 
        "coordinates": [
          13.041608333587646, 
          47.612774161573824
        ]
      }, 
      "type": "Feature", 
      "properties": {
        "description": "3:32 from Munich", 
        "_storage_options": {
          "iconClass": "Circle", 
          "color": "DimGrey"
        }, 
        "name": "Kehlsteinparkplatz, Kreis Berchtesgadener Land"
      }
    }, 
    {
      "geometry": {
        "type": "Point", 
        "coordinates": [
          11.349349021911621, 
          47.62178534571469
        ]
      }, 
      "type": "Feature", 
      "properties": {
        "description": "1:30 from Munich", 
        "_storage_options": {
          "iconClass": "Circle", 
          "color": "GoldenRod"
        }, 
        "name": "Kesselberg Pa\u00dfh\u00f6he, Kochel a. See"
      }
    }, 
    {
      "geometry": {
        "type": "Point", 
        "coordinates": [
          11.82901382446289, 
          47.65804579977095
        ]
      }, 
      "type": "Feature", 
      "properties": {
        "description": "1:42 from Munich", 
        "_storage_options": {
          "iconClass": "Circle", 
          "color": "GoldenRod"
        }, 
        "name": "Kistenwinterstube, Rottach-Egern"
      }
    }, 
    {
      "geometry": {
        "type": "Point", 
        "coordinates": [
          11.714043617248535, 
          47.62245063642757
        ]
      }, 
      "type": "Feature", 
      "properties": {
        "description": "1:50 from Munich", 
        "_storage_options": {
          "iconClass": "Circle", 
          "color": "SaddleBrown"
        }, 
        "name": "Klamm, Kreuth"
      }
    }, 
    {
      "geometry": {
        "type": "Point", 
        "coordinates": [
          10.122356414794922, 
          47.30923793673154
        ]
      }, 
      "type": "Feature", 
      "properties": {
        "description": "3:22 from Munich", 
        "_storage_options": {
          "iconClass": "Circle", 
          "color": "DimGrey"
        }, 
        "name": "Kleinwalsertal Baad, \u00d6sterreich"
      }
    }, 
    {
      "geometry": {
        "type": "Point", 
        "coordinates": [
          10.145487785339354, 
          47.31488271908446
        ]
      }, 
      "type": "Feature", 
      "properties": {
        "description": "3:17 from Munich", 
        "_storage_options": {
          "iconClass": "Circle", 
          "color": "DimGrey"
        }, 
        "name": "Kleinwalsertal Gemse, \u00d6sterreich"
      }
    }, 
    {
      "geometry": {
        "type": "Point", 
        "coordinates": [
          11.093316078186035, 
          47.568715625924945
        ]
      }, 
      "type": "Feature", 
      "properties": {
        "description": "1:42 from Munich", 
        "_storage_options": {
          "iconClass": "Circle", 
          "color": "GoldenRod"
        }, 
        "name": "Klostergasthof, Ettal"
      }
    }, 
    {
      "geometry": {
        "type": "Point", 
        "coordinates": [
          12.98809289932251, 
          47.59095574881921
        ]
      }, 
      "type": "Feature", 
      "properties": {
        "description": "2:58 from Munich", 
        "_storage_options": {
          "iconClass": "Circle", 
          "color": "DarkViolet"
        }, 
        "name": "K\u00f6nigssee Parkplatz, Sch\u00f6nau a. K\u00f6nigssee"
      }
    }, 
    {
      "geometry": {
        "type": "Point", 
        "coordinates": [
          11.524744033813477, 
          47.45815672733221
        ]
      }, 
      "type": "Feature", 
      "properties": {
        "description": "1:56 from Munich", 
        "_storage_options": {
          "iconClass": "Circle", 
          "color": "SaddleBrown"
        }, 
        "name": "Kreuzbr\u00fccke, \u00d6sterreich"
      }
    }, 
    {
      "geometry": {
        "type": "Point", 
        "coordinates": [
          11.063146591186523, 
          47.47196666529539
        ]
      }, 
      "type": "Feature", 
      "properties": {
        "description": "1:46 from Munich", 
        "_storage_options": {
          "iconClass": "Circle", 
          "color": "SaddleBrown"
        }, 
        "name": "Kreuzeck/Alpspitzbahn Bhf., Garmisch-Partenkirchen"
      }
    }, 
    {
      "geometry": {
        "type": "Point", 
        "coordinates": [
          12.165684700012205, 
          47.58295241923363
        ]
      }, 
      "type": "Feature", 
      "properties": {
        "description": "1:01 from Munich", 
        "_storage_options": {
          "iconClass": "Circle", 
          "color": "Green"
        }, 
        "name": "Kufstein"
      }
    }, 
    {
      "geometry": {
        "type": "Point", 
        "coordinates": [
          13.036415576934813, 
          47.67207767885599
        ]
      }, 
      "type": "Feature", 
      "properties": {
        "description": "2:24 from Munich", 
        "_storage_options": {
          "iconClass": "Circle", 
          "color": "DeepPink"
        }, 
        "name": "Kugelm\u00fchle, Marktschellenberg"
      }
    }, 
    {
      "geometry": {
        "type": "Point", 
        "coordinates": [
          10.834064483642578, 
          47.41972512929253
        ]
      }, 
      "type": "Feature", 
      "properties": {
        "description": "2:13 from Munich", 
        "_storage_options": {
          "iconClass": "Circle", 
          "color": "SaddleBrown"
        }, 
        "name": "L\u00e4hn b.Bichlbach Dorf, \u00d6sterreich"
      }
    }, 
    {
      "geometry": {
        "type": "Point", 
        "coordinates": [
          12.65723705291748, 
          47.7241403820426
        ]
      }, 
      "type": "Feature", 
      "properties": {
        "description": "1:58 from Munich", 
        "_storage_options": {
          "iconClass": "Circle", 
          "color": "SaddleBrown"
        }, 
        "name": "Laubau/Holzknechtmuseum, Ruhpolding"
      }
    }, 
    {
      "geometry": {
        "type": "Point", 
        "coordinates": [
          11.57358169555664, 
          47.67983622284605
        ]
      }, 
      "type": "Feature", 
      "properties": {
        "description": "1:03 from Munich", 
        "_storage_options": {
          "iconClass": "Circle", 
          "color": "Green"
        }, 
        "name": "Lenggries"
      }
    }, 
    {
      "geometry": {
        "type": "Point", 
        "coordinates": [
          10.879039764404297, 
          47.405088201236765
        ]
      }, 
      "type": "Feature", 
      "properties": {
        "description": "2:02 from Munich", 
        "_storage_options": {
          "iconClass": "Circle", 
          "color": "SaddleBrown"
        }, 
        "name": "Lermoos"
      }
    }, 
    {
      "geometry": {
        "type": "Point", 
        "coordinates": [
          11.157324314117432, 
          47.37696459572699
        ]
      }, 
      "type": "Feature", 
      "properties": {
        "description": "2:30 from Munich", 
        "_storage_options": {
          "iconClass": "Circle", 
          "color": "DeepPink"
        }, 
        "name": "Leutasch Gh. R\u00f6ssl, \u00d6sterreich"
      }
    }, 
    {
      "geometry": {
        "type": "Point", 
        "coordinates": [
          10.956909656524658, 
          47.569692855435115
        ]
      }, 
      "type": "Feature", 
      "properties": {
        "description": "2:16 from Munich", 
        "_storage_options": {
          "iconClass": "Circle", 
          "color": "DeepPink"
        }, 
        "name": "Linderhof Schlo\u00df, Ettal"
      }
    }, 
    {
      "geometry": {
        "type": "Point", 
        "coordinates": [
          11.749518513679504, 
          47.42457053714144
        ]
      }, 
      "type": "Feature", 
      "properties": {
        "description": "2:43 from Munich", 
        "_storage_options": {
          "iconClass": "Circle", 
          "color": "DeepPink"
        }, 
        "name": "Maurach Mittelschule, \u00d6sterreich"
      }
    }, 
    {
      "geometry": {
        "type": "Point", 
        "coordinates": [
          11.266136169433592, 
          47.43993134219698
        ]
      }, 
      "type": "Feature", 
      "properties": {
        "description": "1:51 from Munich", 
        "_storage_options": {
          "iconClass": "Circle", 
          "color": "SaddleBrown"
        }, 
        "name": "Mittenwald"
      }
    }, 
    {
      "geometry": {
        "type": "Point", 
        "coordinates": [
          11.833198070526123, 
          47.420908393637156
        ]
      }, 
      "type": "Feature", 
      "properties": {
        "description": "1:46 from Munich", 
        "_storage_options": {
          "iconClass": "Circle", 
          "color": "SaddleBrown"
        }, 
        "name": "M\u00fcnster/Inn Gemeindeamt, \u00d6sterreich"
      }
    }, 
    {
      "geometry": {
        "type": "Point", 
        "coordinates": [
          10.611848831176758, 
          47.48380086737799
        ]
      }, 
      "type": "Feature", 
      "properties": {
        "description": "3:03 from Munich", 
        "_storage_options": {
          "iconClass": "Circle", 
          "color": "DarkViolet"
        }, 
        "name": "Nesselw\u00e4ngle Gh K\u00f6llenspitze, \u00d6sterreich"
      }
    }, 
    {
      "geometry": {
        "type": "Point", 
        "coordinates": [
          11.056280136108398, 
          47.59986940934607
        ]
      }, 
      "type": "Feature", 
      "properties": {
        "description": "1:40 from Munich", 
        "_storage_options": {
          "iconClass": "Circle", 
          "color": "GoldenRod"
        }, 
        "name": "Oberammergau"
      }
    }, 
    {
      "geometry": {
        "type": "Point", 
        "coordinates": [
          12.175233364105225, 
          47.65264013567813
        ]
      }, 
      "type": "Feature", 
      "properties": {
        "description": "1:05 from Munich", 
        "_storage_options": {
          "iconClass": "Circle", 
          "color": "Green"
        }, 
        "name": "Oberaudorf"
      }
    }, 
    {
      "geometry": {
        "type": "Point", 
        "coordinates": [
          11.452367305755615, 
          47.740997259233886
        ]
      }, 
      "type": "Feature", 
      "properties": {
        "description": "1:16 from Munich", 
        "_storage_options": {
          "iconClass": "Circle", 
          "color": "GoldenRod"
        }, 
        "name": "Oberenzenau Altenheim, Bad Heilbrunn"
      }
    }, 
    {
      "geometry": {
        "type": "Point", 
        "coordinates": [
          11.563539505004883, 
          47.70756683264426
        ]
      }, 
      "type": "Feature", 
      "properties": {
        "description": "0:59 from Munich", 
        "_storage_options": {
          "iconClass": "Circle", 
          "color": "Green"
        }, 
        "name": "Obergries"
      }
    }, 
    {
      "geometry": {
        "type": "Point", 
        "coordinates": [
          10.280799865722656, 
          47.4128137535428
        ]
      }, 
      "type": "Feature", 
      "properties": {
        "description": "2:20 from Munich", 
        "_storage_options": {
          "iconClass": "Circle", 
          "color": "DeepPink"
        }, 
        "name": "Oberstdorf"
      }
    }, 
    {
      "geometry": {
        "type": "Point", 
        "coordinates": [
          12.48071014881134, 
          47.70694955379905
        ]
      }, 
      "type": "Feature", 
      "properties": {
        "description": "1:43 from Munich", 
        "_storage_options": {
          "iconClass": "Circle", 
          "color": "GoldenRod"
        }, 
        "name": "Oberw\u00f6ssen Gasthaus Post, Unterw\u00f6ssen"
      }
    }, 
    {
      "geometry": {
        "type": "Point", 
        "coordinates": [
          11.218156814575195, 
          47.63419307000045
        ]
      }, 
      "type": "Feature", 
      "properties": {
        "description": "1:01 from Munich", 
        "_storage_options": {
          "iconClass": "Circle", 
          "color": "Green"
        }, 
        "name": "Ohlstadt"
      }
    }, 
    {
      "geometry": {
        "type": "Point", 
        "coordinates": [
          11.986486315727234, 
          47.687842784019196
        ]
      }, 
      "type": "Feature", 
      "properties": {
        "description": "1:15 from Munich", 
        "_storage_options": {
          "iconClass": "Circle", 
          "color": "Green"
        }, 
        "name": "Osterhofen(Oberbay)"
      }
    }, 
    {
      "geometry": {
        "type": "Point", 
        "coordinates": [
          11.442840099334717, 
          47.52220014551983
        ]
      }, 
      "type": "Feature", 
      "properties": {
        "description": "1:40 from Munich", 
        "_storage_options": {
          "iconClass": "Circle", 
          "color": "GoldenRod"
        }, 
        "name": "Oswaldh\u00fctte, Lenggries"
      }
    }, 
    {
      "geometry": {
        "type": "Point", 
        "coordinates": [
          11.68795108795166, 
          47.43959753820317
        ]
      }, 
      "type": "Feature", 
      "properties": {
        "description": "3:45 from Munich", 
        "_storage_options": {
          "iconClass": "Circle", 
          "color": "DimGrey"
        }, 
        "name": "Pertisau Karwendellift, \u00d6sterreich"
      }
    }, 
    {
      "geometry": {
        "type": "Point", 
        "coordinates": [
          11.500775814056396, 
          47.61643378639368
        ]
      }, 
      "type": "Feature", 
      "properties": {
        "description": "1:25 from Munich", 
        "_storage_options": {
          "iconClass": "Circle", 
          "color": "GoldenRod"
        }, 
        "name": "Petern, Jachenau"
      }
    }, 
    {
      "geometry": {
        "type": "Point", 
        "coordinates": [
          13.199858665466309, 
          47.46152250874388
        ]
      }, 
      "type": "Feature", 
      "properties": {
        "description": "2:53 from Munich", 
        "_storage_options": {
          "iconClass": "Circle", 
          "color": "DarkViolet"
        }, 
        "name": "Pfarrwerfen"
      }
    }, 
    {
      "geometry": {
        "type": "Point", 
        "coordinates": [
          10.7181715965271, 
          47.5138819608144
        ]
      }, 
      "type": "Feature", 
      "properties": {
        "description": "2:47 from Munich", 
        "_storage_options": {
          "iconClass": "Circle", 
          "color": "DarkViolet"
        }, 
        "name": "Pflach Unterletzen, \u00d6sterreich"
      }
    }, 
    {
      "geometry": {
        "type": "Point", 
        "coordinates": [
          10.57436227798462, 
          47.566145787233914
        ]
      }, 
      "type": "Feature", 
      "properties": {
        "description": "2:32 from Munich", 
        "_storage_options": {
          "iconClass": "Circle", 
          "color": "DeepPink"
        }, 
        "name": "Pfronten-Steinach"
      }
    }, 
    {
      "geometry": {
        "type": "Point", 
        "coordinates": [
          11.745221614837645, 
          47.643749925862856
        ]
      }, 
      "type": "Feature", 
      "properties": {
        "description": "1:48 from Munich", 
        "_storage_options": {
          "iconClass": "Circle", 
          "color": "SaddleBrown"
        }, 
        "name": "Riedlerbr\u00fccke, Kreuth"
      }
    }, 
    {
      "geometry": {
        "type": "Point", 
        "coordinates": [
          12.829885482788086, 
          47.42672269885777
        ]
      }, 
      "type": "Feature", 
      "properties": {
        "description": "2:29 from Munich", 
        "_storage_options": {
          "iconClass": "Circle", 
          "color": "DeepPink"
        }, 
        "name": "Saalfelden"
      }
    }, 
    {
      "geometry": {
        "type": "Point", 
        "coordinates": [
          11.266908645629883, 
          47.391783655105186
        ]
      }, 
      "type": "Feature", 
      "properties": {
        "description": "2:01 from Munich", 
        "_storage_options": {
          "iconClass": "Circle", 
          "color": "SaddleBrown"
        }, 
        "name": "Scharnitz"
      }
    }, 
    {
      "geometry": {
        "type": "Point", 
        "coordinates": [
          11.961590051651001, 
          49.01057967639679
        ]
      }, 
      "type": "Feature", 
      "properties": {
        "description": "1:58 from Munich", 
        "_storage_options": {
          "iconClass": "Circle", 
          "color": "SaddleBrown"
        }, 
        "name": "Sch\u00f6nhofen Gh Feuerer, Nittendorf"
      }
    }, 
    {
      "geometry": {
        "type": "Point", 
        "coordinates": [
          11.701469421386719, 
          47.34981457614942
        ]
      }, 
      "type": "Feature", 
      "properties": {
        "description": "1:49 from Munich", 
        "_storage_options": {
          "iconClass": "Circle", 
          "color": "SaddleBrown"
        }, 
        "name": "Schwaz"
      }
    }, 
    {
      "geometry": {
        "type": "Point", 
        "coordinates": [
          11.88618779182434, 
          47.67220771982475
        ]
      }, 
      "type": "Feature", 
      "properties": {
        "description": "1:12 from Munich", 
        "_storage_options": {
          "iconClass": "Circle", 
          "color": "Green"
        }, 
        "name": "Spitzingsattel, Schliersee"
      }
    }, 
    {
      "geometry": {
        "type": "Point", 
        "coordinates": [
          11.887936592102049, 
          47.66162999573324
        ]
      }, 
      "type": "Feature", 
      "properties": {
        "description": "1:18 from Munich", 
        "_storage_options": {
          "iconClass": "Circle", 
          "color": "GoldenRod"
        }, 
        "name": "Spitzingsee Kirche, Schliersee"
      }
    }, 
    {
      "geometry": {
        "type": "Point", 
        "coordinates": [
          11.78856611251831, 
          47.52020042361525
        ]
      }, 
      "type": "Feature", 
      "properties": {
        "description": "3:10 from Munich", 
        "_storage_options": {
          "iconClass": "Circle", 
          "color": "DarkViolet"
        }, 
        "name": "Steinberg am Rofan Abzw Waldh\u00e4usl, \u00d6sterreich"
      }
    }, 
    {
      "geometry": {
        "type": "Point", 
        "coordinates": [
          10.506448745727539, 
          47.46918175979224
        ]
      }, 
      "type": "Feature", 
      "properties": {
        "description": "3:32 from Munich", 
        "_storage_options": {
          "iconClass": "Circle", 
          "color": "DimGrey"
        }, 
        "name": "Tannheim in Tirol Vilsalpsee, \u00d6sterreich"
      }
    }, 
    {
      "geometry": {
        "type": "Point", 
        "coordinates": [
          12.08471417427063, 
          47.67227274018763
        ]
      }, 
      "type": "Feature", 
      "properties": {
        "description": "1:39 from Munich", 
        "_storage_options": {
          "iconClass": "Circle", 
          "color": "GoldenRod"
        }, 
        "name": "Tatzelwurm Gasthof, Oberaudorf"
      }
    }, 
    {
      "geometry": {
        "type": "Point", 
        "coordinates": [
          10.756194591522217, 
          47.568520177834856
        ]
      }, 
      "type": "Feature", 
      "properties": {
        "description": "2:25 from Munich", 
        "_storage_options": {
          "iconClass": "Circle", 
          "color": "DeepPink"
        }, 
        "name": "Tegelbergbahn, Schwangau"
      }
    }, 
    {
      "geometry": {
        "type": "Point", 
        "coordinates": [
          11.757087707519531, 
          47.714150685458925
        ]
      }, 
      "type": "Feature", 
      "properties": {
        "description": "0:59 from Munich", 
        "_storage_options": {
          "iconClass": "Circle", 
          "color": "Green"
        }, 
        "name": "Tegernsee Bahnhof"
      }
    }, 
    {
      "geometry": {
        "type": "Point", 
        "coordinates": [
          11.675806045532227, 
          47.61558037899914
        ]
      }, 
      "type": "Feature", 
      "properties": {
        "description": "2:12 from Munich", 
        "_storage_options": {
          "iconClass": "Circle", 
          "color": "SaddleBrown"
        }, 
        "name": "Tegernseer H\u00fctte Bushst., Kreuth"
      }
    }, 
    {
      "geometry": {
        "type": "Point", 
        "coordinates": [
          12.161521911621094, 
          47.72995719851869
        ]
      }, 
      "type": "Feature", 
      "properties": {
        "description": "1:39 from Munich", 
        "_storage_options": {
          "iconClass": "Circle", 
          "color": "GoldenRod"
        }, 
        "name": "\u00dcberfilzen, Nu\u00dfdorf a. Inn"
      }
    }, 
    {
      "geometry": {
        "type": "Point", 
        "coordinates": [
          12.036895751953125, 
          47.683332247339834
        ]
      }, 
      "type": "Feature", 
      "properties": {
        "description": "1:50 from Munich", 
        "_storage_options": {
          "iconClass": "Circle", 
          "color": "SaddleBrown"
        }, 
        "name": "Unteres Sudelfeld Jugenherberge, Bayrischzell"
      }
    }, 
    {
      "geometry": {
        "type": "Point", 
        "coordinates": [
          11.179404258728026, 
          47.39865421686805
        ]
      }, 
      "type": "Feature", 
      "properties": {
        "description": "2:33 from Munich", 
        "_storage_options": {
          "iconClass": "Circle", 
          "color": "DeepPink"
        }, 
        "name": "Unterleutasch-Reindlau, \u00d6sterreich"
      }
    }, 
    {
      "geometry": {
        "type": "Point", 
        "coordinates": [
          10.68920373916626, 
          47.487266507686755
        ]
      }, 
      "type": "Feature", 
      "properties": {
        "description": "2:44 from Munich", 
        "_storage_options": {
          "iconClass": "Circle", 
          "color": "DeepPink"
        }, 
        "name": "W\u00e4ngle Dorf, \u00d6sterreich"
      }
    }, 
    {
      "geometry": {
        "type": "Point", 
        "coordinates": [
          13.195395469665527, 
          47.47286592617717
        ]
      }, 
      "type": "Feature", 
      "properties": {
        "description": "2:24 from Munich", 
        "_storage_options": {
          "iconClass": "Circle", 
          "color": "DeepPink"
        }, 
        "name": "Werfen"
      }
    }, 
    {
      "geometry": {
        "type": "Point", 
        "coordinates": [
          11.746487617492676, 
          47.626731435012644
        ]
      }, 
      "type": "Feature", 
      "properties": {
        "description": "1:52 from Munich", 
        "_storage_options": {
          "iconClass": "Circle", 
          "color": "SaddleBrown"
        }, 
        "name": "Wildbad Kreuth, Kreuth"
      }
    }, 
    {
      "geometry": {
        "type": "Point", 
        "coordinates": [
          12.924342155456543, 
          47.603240576716246
        ]
      }, 
      "type": "Feature", 
      "properties": {
        "description": "2:59 from Munich", 
        "_storage_options": {
          "iconClass": "Circle", 
          "color": "DarkViolet"
        }, 
        "name": "Wimbachbr\u00fccke, Ramsau b. Berchtesgaden"
      }
    }, 
    {
      "geometry": {
        "type": "Point", 
        "coordinates": [
          12.412694692611694, 
          47.73056338022722
        ]
      }, 
      "type": "Feature", 
      "properties": {
        "description": "1:45 from Munich", 
        "_storage_options": {
          "iconClass": "Circle", 
          "color": "GoldenRod"
        }, 
        "name": "Zellerwand, Schleching"
      }
    }
  ]
}